{"type":"FeatureCollection","totalFeatures":121,"features":[{"type":"Feature","id":"CITYBIKEOGD.11314","geometry":{"type":"Point","coordinates":[16.34902132172584,48.22419498908096]},"geometry_name":"SHAPE","properties":{"STATION":"Währinger Straße U6","BEZIRK":18,"SE_SDO_ROWID":11314,"SE_ANNO_CAD_DATA":null}},{"type":"Feature","id":"CITYBIKEOGD.11315","geometry":{"type":"Point","coordinates":[16.348736568037992,48.2365946555803]},"geometry_name":"SHAPE","properties":{"STATION":"Gymnasiumstraße","BEZIRK":19,"SE_SDO_ROWID":11315,"SE_ANNO_CAD_DATA":null}},{"type":"Feature","id":"CITYBIKEOGD.11316","geometry":{"type":"Point","coordinates":[16.379227781223292,48.24402054983736]},"geometry_name":"SHAPE","properties":{"STATION":"Friedrich Engels Platz","BEZIRK":20,"SE_SDO_ROWID":11316,"SE_ANNO_CAD_DATA":null}},{"type":"Feature","id":"CITYBIKEOGD.11317","geometry":{"type":"Point","coordinates":[16.380306187319295,48.237457906071185]},"geometry_name":"SHAPE","properties":{"STATION":"Hellwagstraße","BEZIRK":20,"SE_SDO_ROWID":11317,"SE_ANNO_CAD_DATA":null}},{"type":"Feature","id":"CITYBIKEOGD.11318","geometry":{"type":"Point","coordinates":[16.369837235391667,48.235129924432414]},"geometry_name":"SHAPE","properties":{"STATION":"Jägerstraße U6","BEZIRK":20,"SE_SDO_ROWID":11318,"SE_ANNO_CAD_DATA":null}},{"type":"Feature","id":"CITYBIKEOGD.11319","geometry":{"type":"Point","coordinates":[16.38480406322374,48.24201099367874]},"geometry_name":"SHAPE","properties":{"STATION":"Millennium Tower","BEZIRK":20,"SE_SDO_ROWID":11319,"SE_ANNO_CAD_DATA":null}},{"type":"Feature","id":"CITYBIKEOGD.11320","geometry":{"type":"Point","coordinates":[16.383436166347646,48.23361292300894]},"geometry_name":"SHAPE","properties":{"STATION":"Traisengasse","BEZIRK":20,"SE_SDO_ROWID":11320,"SE_ANNO_CAD_DATA":null}},{"type":"Feature","id":"CITYBIKEOGD.11321","geometry":{"type":"Point","coordinates":[16.3715732198241,48.22990594779746]},"geometry_name":"SHAPE","properties":{"STATION":"Wallensteinplatz","BEZIRK":20,"SE_SDO_ROWID":11321,"SE_ANNO_CAD_DATA":null}},{"type":"Feature","id":"CITYBIKEOGD.11201","geometry":{"type":"Point","coordinates":[16.36667803016222,48.20971813968917]},"geometry_name":"SHAPE","properties":{"STATION":"Wallnerstraße","BEZIRK":1,"SE_SDO_ROWID":11201,"SE_ANNO_CAD_DATA":null}},{"type":"Feature","id":"CITYBIKEOGD.11202","geometry":{"type":"Point","coordinates":[16.356091268325493,48.2104190505322]},"geometry_name":"SHAPE","properties":{"STATION":"Friedrich Schmidtplatz","BEZIRK":1,"SE_SDO_ROWID":11202,"SE_ANNO_CAD_DATA":null}},{"type":"Feature","id":"CITYBIKEOGD.11203","geometry":{"type":"Point","coordinates":[16.372977055416264,48.21066012185283]},"geometry_name":"SHAPE","properties":{"STATION":"Hoher Markt","BEZIRK":1,"SE_SDO_ROWID":11203,"SE_ANNO_CAD_DATA":null}},{"type":"Feature","id":"CITYBIKEOGD.11204","geometry":{"type":"Point","coordinates":[16.37671015798404,48.203360070989824]},"geometry_name":"SHAPE","properties":{"STATION":"Johannesgasse","BEZIRK":1,"SE_SDO_ROWID":11204,"SE_ANNO_CAD_DATA":null}},{"type":"Feature","id":"CITYBIKEOGD.11205","geometry":{"type":"Point","coordinates":[16.382366140998066,48.21152802914468]},"geometry_name":"SHAPE","properties":{"STATION":"Julius Raab Platz","BEZIRK":1,"SE_SDO_ROWID":11205,"SE_ANNO_CAD_DATA":null}},{"type":"Feature","id":"CITYBIKEOGD.11206","geometry":{"type":"Point","coordinates":[16.37130818308038,48.2021510803414]},"geometry_name":"SHAPE","properties":{"STATION":"Kärntner Ring","BEZIRK":1,"SE_SDO_ROWID":11206,"SE_ANNO_CAD_DATA":null}},{"type":"Feature","id":"CITYBIKEOGD.11207","geometry":{"type":"Point","coordinates":[16.36950319268082,48.20266907954695]},"geometry_name":"SHAPE","properties":{"STATION":"Oper","BEZIRK":1,"SE_SDO_ROWID":11207,"SE_ANNO_CAD_DATA":null}},{"type":"Feature","id":"CITYBIKEOGD.11208","geometry":{"type":"Point","coordinates":[16.360241247266078,48.209915050008966]},"geometry_name":"SHAPE","properties":{"STATION":"Rathausplatz","BEZIRK":1,"SE_SDO_ROWID":11208,"SE_ANNO_CAD_DATA":null}},{"type":"Feature","id":"CITYBIKEOGD.11209","geometry":{"type":"Point","coordinates":[16.37221319716503,48.21595801394632]},"geometry_name":"SHAPE","properties":{"STATION":"Schottenring U4","BEZIRK":1,"SE_SDO_ROWID":11209,"SE_ANNO_CAD_DATA":null}},{"type":"Feature","id":"CITYBIKEOGD.11210","geometry":{"type":"Point","coordinates":[16.376646169161795,48.21169303135952]},"geometry_name":"SHAPE","properties":{"STATION":"Schwedenplatz","BEZIRK":1,"SE_SDO_ROWID":11210,"SE_ANNO_CAD_DATA":null}},{"type":"Feature","id":"CITYBIKEOGD.11211","geometry":{"type":"Point","coordinates":[16.38043726696341,48.20681451154315]},"geometry_name":"SHAPE","properties":{"STATION":"Stadtpark Stubenring","BEZIRK":1,"SE_SDO_ROWID":11211,"SE_ANNO_CAD_DATA":null}},{"type":"Feature","id":"CITYBIKEOGD.11212","geometry":{"type":"Point","coordinates":[16.374035178239456,48.20850804850966]},"geometry_name":"SHAPE","properties":{"STATION":"Stephansplatz","BEZIRK":1,"SE_SDO_ROWID":11212,"SE_ANNO_CAD_DATA":null}},{"type":"Feature","id":"CITYBIKEOGD.11213","geometry":{"type":"Point","coordinates":[16.360842062774527,48.21195267335475]},"geometry_name":"SHAPE","properties":{"STATION":"Universitätsring","BEZIRK":1,"SE_SDO_ROWID":11213,"SE_ANNO_CAD_DATA":null}},{"type":"Feature","id":"CITYBIKEOGD.11214","geometry":{"type":"Point","coordinates":[16.360404241641643,48.206501066193795]},"geometry_name":"SHAPE","properties":{"STATION":"Volksgarten","BEZIRK":1,"SE_SDO_ROWID":11214,"SE_ANNO_CAD_DATA":null}},{"type":"Feature","id":"CITYBIKEOGD.11215","geometry":{"type":"Point","coordinates":[16.39027144731316,48.21844838751067]},"geometry_name":"SHAPE","properties":{"STATION":"Heinestraße","BEZIRK":2,"SE_SDO_ROWID":11215,"SE_ANNO_CAD_DATA":null}},{"type":"Feature","id":"CITYBIKEOGD.11216","geometry":{"type":"Point","coordinates":[16.379647160615075,48.2156730104602]},"geometry_name":"SHAPE","properties":{"STATION":"Karmeliterplatz","BEZIRK":2,"SE_SDO_ROWID":11216,"SE_ANNO_CAD_DATA":null}},{"type":"Feature","id":"CITYBIKEOGD.11217","geometry":{"type":"Point","coordinates":[16.414362988403433,48.21437599562027]},"geometry_name":"SHAPE","properties":{"STATION":"Krieau","BEZIRK":2,"SE_SDO_ROWID":11217,"SE_ANNO_CAD_DATA":null}},{"type":"Feature","id":"CITYBIKEOGD.11218","geometry":{"type":"Point","coordinates":[16.406162033040825,48.21728998644786]},"geometry_name":"SHAPE","properties":{"STATION":"Messeplatz","BEZIRK":2,"SE_SDO_ROWID":11218,"SE_ANNO_CAD_DATA":null}},{"type":"Feature","id":"CITYBIKEOGD.11219","geometry":{"type":"Point","coordinates":[16.386201129414278,48.215872005711226]},"geometry_name":"SHAPE","properties":{"STATION":"Nepomukgasse","BEZIRK":2,"SE_SDO_ROWID":11219,"SE_ANNO_CAD_DATA":null}},{"type":"Feature","id":"CITYBIKEOGD.11220","geometry":{"type":"Point","coordinates":[16.382202301928466,48.21951469618898]},"geometry_name":"SHAPE","properties":{"STATION":"Novaragasse","BEZIRK":2,"SE_SDO_ROWID":11220,"SE_ANNO_CAD_DATA":null}},{"type":"Feature","id":"CITYBIKEOGD.11221","geometry":{"type":"Point","coordinates":[16.373077469949898,48.217768685006895]},"geometry_name":"SHAPE","properties":{"STATION":"Obere Donaustraße","BEZIRK":2,"SE_SDO_ROWID":11221,"SE_ANNO_CAD_DATA":null}},{"type":"Feature","id":"CITYBIKEOGD.11222","geometry":{"type":"Point","coordinates":[16.392021818411685,48.21782586224878]},"geometry_name":"SHAPE","properties":{"STATION":"Praterstern","BEZIRK":2,"SE_SDO_ROWID":11222,"SE_ANNO_CAD_DATA":null}},{"type":"Feature","id":"CITYBIKEOGD.11223","geometry":{"type":"Point","coordinates":[16.399781097625972,48.22317715612901]},"geometry_name":"SHAPE","properties":{"STATION":"Radingerstraße","BEZIRK":2,"SE_SDO_ROWID":11223,"SE_ANNO_CAD_DATA":null}},{"type":"Feature","id":"CITYBIKEOGD.11224","geometry":{"type":"Point","coordinates":[16.421396948698256,48.209977012009766]},"geometry_name":"SHAPE","properties":{"STATION":"Stadion Center","BEZIRK":2,"SE_SDO_ROWID":11224,"SE_ANNO_CAD_DATA":null}},{"type":"Feature","id":"CITYBIKEOGD.11225","geometry":{"type":"Point","coordinates":[16.40768551471879,48.21285225769253]},"geometry_name":"SHAPE","properties":{"STATION":"Südportalstraße","BEZIRK":2,"SE_SDO_ROWID":11225,"SE_ANNO_CAD_DATA":null}},{"type":"Feature","id":"CITYBIKEOGD.11226","geometry":{"type":"Point","coordinates":[16.377114434562824,48.19462553543819]},"geometry_name":"SHAPE","properties":{"STATION":"Arbeiterkammer","BEZIRK":3,"SE_SDO_ROWID":11226,"SE_ANNO_CAD_DATA":null}},{"type":"Feature","id":"CITYBIKEOGD.11227","geometry":{"type":"Point","coordinates":[16.384468407357602,48.2016134404454]},"geometry_name":"SHAPE","properties":{"STATION":"Bahngasse","BEZIRK":3,"SE_SDO_ROWID":11227,"SE_ANNO_CAD_DATA":null}},{"type":"Feature","id":"CITYBIKEOGD.11228","geometry":{"type":"Point","coordinates":[16.38657209655818,48.1942341083809]},"geometry_name":"SHAPE","properties":{"STATION":"Fasanplatz","BEZIRK":3,"SE_SDO_ROWID":11228,"SE_ANNO_CAD_DATA":null}},{"type":"Feature","id":"CITYBIKEOGD.11229","geometry":{"type":"Point","coordinates":[16.39519377601202,48.19667110171217]},"geometry_name":"SHAPE","properties":{"STATION":"Juchgasse","BEZIRK":3,"SE_SDO_ROWID":11229,"SE_ANNO_CAD_DATA":null}},{"type":"Feature","id":"CITYBIKEOGD.11230","geometry":{"type":"Point","coordinates":[16.396001156576908,48.205679689184535]},"geometry_name":"SHAPE","properties":{"STATION":"Kundmanngasse","BEZIRK":3,"SE_SDO_ROWID":11230,"SE_ANNO_CAD_DATA":null}},{"type":"Feature","id":"CITYBIKEOGD.11231","geometry":{"type":"Point","coordinates":[16.398455320772662,48.19298076866997]},"geometry_name":"SHAPE","properties":{"STATION":"Petrusgasse","BEZIRK":3,"SE_SDO_ROWID":11231,"SE_ANNO_CAD_DATA":null}},{"type":"Feature","id":"CITYBIKEOGD.11232","geometry":{"type":"Point","coordinates":[16.390210102370393,48.210677028430915]},"geometry_name":"SHAPE","properties":{"STATION":"Radetzkyplatz","BEZIRK":3,"SE_SDO_ROWID":11232,"SE_ANNO_CAD_DATA":null}},{"type":"Feature","id":"CITYBIKEOGD.11233","geometry":{"type":"Point","coordinates":[16.389773093546395,48.203404062785246]},"geometry_name":"SHAPE","properties":{"STATION":"Salmgasse","BEZIRK":3,"SE_SDO_ROWID":11233,"SE_ANNO_CAD_DATA":null}},{"type":"Feature","id":"CITYBIKEOGD.11234","geometry":{"type":"Point","coordinates":[16.37696815054703,48.198851092510644]},"geometry_name":"SHAPE","properties":{"STATION":"Schwarzenbergplatz","BEZIRK":3,"SE_SDO_ROWID":11234,"SE_ANNO_CAD_DATA":null}},{"type":"Feature","id":"CITYBIKEOGD.11235","geometry":{"type":"Point","coordinates":[16.3943220661911,48.19923307994595]},"geometry_name":"SHAPE","properties":{"STATION":"Wassergasse","BEZIRK":3,"SE_SDO_ROWID":11235,"SE_ANNO_CAD_DATA":null}},{"type":"Feature","id":"CITYBIKEOGD.11236","geometry":{"type":"Point","coordinates":[16.385238396352516,48.20584565595263]},"geometry_name":"SHAPE","properties":{"STATION":"Wien Mitte","BEZIRK":3,"SE_SDO_ROWID":11236,"SE_ANNO_CAD_DATA":null}},{"type":"Feature","id":"CITYBIKEOGD.11237","geometry":{"type":"Point","coordinates":[16.363298444460696,48.19530317571636]},"geometry_name":"SHAPE","properties":{"STATION":"Heumühlgasse","BEZIRK":4,"SE_SDO_ROWID":11237,"SE_ANNO_CAD_DATA":null}},{"type":"Feature","id":"CITYBIKEOGD.11238","geometry":{"type":"Point","coordinates":[16.367061561235158,48.192876888617675]},"geometry_name":"SHAPE","properties":{"STATION":"Mayerhofgasse","BEZIRK":4,"SE_SDO_ROWID":11238,"SE_ANNO_CAD_DATA":null}},{"type":"Feature","id":"CITYBIKEOGD.11239","geometry":{"type":"Point","coordinates":[16.37565799613735,48.19085186687401]},"geometry_name":"SHAPE","properties":{"STATION":"Sankt-Elisabeth-Platz","BEZIRK":4,"SE_SDO_ROWID":11239,"SE_ANNO_CAD_DATA":null}},{"type":"Feature","id":"CITYBIKEOGD.11240","geometry":{"type":"Point","coordinates":[16.36815119456501,48.19972409425667]},"geometry_name":"SHAPE","properties":{"STATION":"Treitlstraße","BEZIRK":4,"SE_SDO_ROWID":11240,"SE_ANNO_CAD_DATA":null}},{"type":"Feature","id":"CITYBIKEOGD.11241","geometry":{"type":"Point","coordinates":[16.3458232822723,48.183880183581195]},"geometry_name":"SHAPE","properties":{"STATION":"Arbeitergasse","BEZIRK":5,"SE_SDO_ROWID":11241,"SE_ANNO_CAD_DATA":null}},{"type":"Feature","id":"CITYBIKEOGD.11242","geometry":{"type":"Point","coordinates":[16.35740024220815,48.196354117186324]},"geometry_name":"SHAPE","properties":{"STATION":"Falco Stiege","BEZIRK":5,"SE_SDO_ROWID":11242,"SE_ANNO_CAD_DATA":null}},{"type":"Feature","id":"CITYBIKEOGD.11243","geometry":{"type":"Point","coordinates":[16.36389119742535,48.187178156176074]},"geometry_name":"SHAPE","properties":{"STATION":"Hartmanngasse","BEZIRK":5,"SE_SDO_ROWID":11243,"SE_ANNO_CAD_DATA":null}},{"type":"Feature","id":"CITYBIKEOGD.11244","geometry":{"type":"Point","coordinates":[16.343859298396996,48.18847016318455]},"geometry_name":"SHAPE","properties":{"STATION":"Margaretengürtel U4","BEZIRK":5,"SE_SDO_ROWID":11244,"SE_ANNO_CAD_DATA":null}},{"type":"Feature","id":"CITYBIKEOGD.11245","geometry":{"type":"Point","coordinates":[16.358003129491298,48.18154277129087]},"geometry_name":"SHAPE","properties":{"STATION":"Matzleinsdorfer Platz","BEZIRK":5,"SE_SDO_ROWID":11245,"SE_ANNO_CAD_DATA":null}},{"type":"Feature","id":"CITYBIKEOGD.11246","geometry":{"type":"Point","coordinates":[16.361329704151782,48.18972630525521]},"geometry_name":"SHAPE","properties":{"STATION":"Mittersteig","BEZIRK":5,"SE_SDO_ROWID":11246,"SE_ANNO_CAD_DATA":null}},{"type":"Feature","id":"CITYBIKEOGD.11247","geometry":{"type":"Point","coordinates":[16.35469625087456,48.19269913559258]},"geometry_name":"SHAPE","properties":{"STATION":"Pilgramgasse U4","BEZIRK":5,"SE_SDO_ROWID":11247,"SE_ANNO_CAD_DATA":null}},{"type":"Feature","id":"CITYBIKEOGD.11248","geometry":{"type":"Point","coordinates":[16.35101826426761,48.18952115303165]},"geometry_name":"SHAPE","properties":{"STATION":"Reinprechtsdorfer Brücke","BEZIRK":5,"SE_SDO_ROWID":11248,"SE_ANNO_CAD_DATA":null}},{"type":"Feature","id":"CITYBIKEOGD.11249","geometry":{"type":"Point","coordinates":[16.35301425105463,48.18527148353864]},"geometry_name":"SHAPE","properties":{"STATION":"Siebenbrunnenplatz","BEZIRK":5,"SE_SDO_ROWID":11249,"SE_ANNO_CAD_DATA":null}},{"type":"Feature","id":"CITYBIKEOGD.11250","geometry":{"type":"Point","coordinates":[16.33830477105179,48.1893607742042]},"geometry_name":"SHAPE","properties":{"STATION":"Gumpendorfer Gürtel","BEZIRK":6,"SE_SDO_ROWID":11250,"SE_ANNO_CAD_DATA":null}},{"type":"Feature","id":"CITYBIKEOGD.11251","geometry":{"type":"Point","coordinates":[16.35090927688664,48.19852111048471]},"geometry_name":"SHAPE","properties":{"STATION":"Kollergerngasse","BEZIRK":6,"SE_SDO_ROWID":11251,"SE_ANNO_CAD_DATA":null}},{"type":"Feature","id":"CITYBIKEOGD.11252","geometry":{"type":"Point","coordinates":[16.337417655089805,48.20366972378574]},"geometry_name":"SHAPE","properties":{"STATION":"Burggasse U6","BEZIRK":7,"SE_SDO_ROWID":11252,"SE_ANNO_CAD_DATA":null}},{"type":"Feature","id":"CITYBIKEOGD.11253","geometry":{"type":"Point","coordinates":[16.361106476462247,48.20233933964785]},"geometry_name":"SHAPE","properties":{"STATION":"Museumsplatz","BEZIRK":7,"SE_SDO_ROWID":11253,"SE_ANNO_CAD_DATA":null}},{"type":"Feature","id":"CITYBIKEOGD.11254","geometry":{"type":"Point","coordinates":[16.34323232755903,48.20724307326908]},"geometry_name":"SHAPE","properties":{"STATION":"Schottenfeldgasse","BEZIRK":7,"SE_SDO_ROWID":11254,"SE_ANNO_CAD_DATA":null}},{"type":"Feature","id":"CITYBIKEOGD.11255","geometry":{"type":"Point","coordinates":[16.352024276415193,48.20215509262772]},"geometry_name":"SHAPE","properties":{"STATION":"Siebensternplatz","BEZIRK":7,"SE_SDO_ROWID":11255,"SE_ANNO_CAD_DATA":null}},{"type":"Feature","id":"CITYBIKEOGD.11256","geometry":{"type":"Point","coordinates":[16.337718344961175,48.201029106300076]},"geometry_name":"SHAPE","properties":{"STATION":"Urban Loritz Platz","BEZIRK":7,"SE_SDO_ROWID":11256,"SE_ANNO_CAD_DATA":null}},{"type":"Feature","id":"CITYBIKEOGD.11257","geometry":{"type":"Point","coordinates":[16.343974308719062,48.19672112366531]},"geometry_name":"SHAPE","properties":{"STATION":"Webgasse","BEZIRK":7,"SE_SDO_ROWID":11257,"SE_ANNO_CAD_DATA":null}},{"type":"Feature","id":"CITYBIKEOGD.11258","geometry":{"type":"Point","coordinates":[16.356423260794898,48.206001071480465]},"geometry_name":"SHAPE","properties":{"STATION":"Weghuberpark","BEZIRK":7,"SE_SDO_ROWID":11258,"SE_ANNO_CAD_DATA":null}},{"type":"Feature","id":"CITYBIKEOGD.11259","geometry":{"type":"Point","coordinates":[16.34405805818636,48.21053263166596]},"geometry_name":"SHAPE","properties":{"STATION":"Albertgasse","BEZIRK":8,"SE_SDO_ROWID":11259,"SE_ANNO_CAD_DATA":null}},{"type":"Feature","id":"CITYBIKEOGD.11260","geometry":{"type":"Point","coordinates":[16.346440322647627,48.21521903361881]},"geometry_name":"SHAPE","properties":{"STATION":"Alser Straße/Feldgasse","BEZIRK":8,"SE_SDO_ROWID":11260,"SE_ANNO_CAD_DATA":null}},{"type":"Feature","id":"CITYBIKEOGD.11261","geometry":{"type":"Point","coordinates":[16.359604918172373,48.228940550854276]},"geometry_name":"SHAPE","properties":{"STATION":"Althanstraße","BEZIRK":9,"SE_SDO_ROWID":11261,"SE_ANNO_CAD_DATA":null}},{"type":"Feature","id":"CITYBIKEOGD.11262","geometry":{"type":"Point","coordinates":[16.360176112073113,48.22110519488526]},"geometry_name":"SHAPE","properties":{"STATION":"Bauernfeldplatz","BEZIRK":9,"SE_SDO_ROWID":11262,"SE_ANNO_CAD_DATA":null}},{"type":"Feature","id":"CITYBIKEOGD.11263","geometry":{"type":"Point","coordinates":[16.366334431034286,48.21918007240759]},"geometry_name":"SHAPE","properties":{"STATION":"Berggasse","BEZIRK":9,"SE_SDO_ROWID":11263,"SE_ANNO_CAD_DATA":null}},{"type":"Feature","id":"CITYBIKEOGD.11264","geometry":{"type":"Point","coordinates":[16.356383281385313,48.2203370033277]},"geometry_name":"SHAPE","properties":{"STATION":"Boltzmanngasse","BEZIRK":9,"SE_SDO_ROWID":11264,"SE_ANNO_CAD_DATA":null}},{"type":"Feature","id":"CITYBIKEOGD.11265","geometry":{"type":"Point","coordinates":[16.355136279645876,48.21515002865829]},"geometry_name":"SHAPE","properties":{"STATION":"Frankhplatz","BEZIRK":9,"SE_SDO_ROWID":11265,"SE_ANNO_CAD_DATA":null}},{"type":"Feature","id":"CITYBIKEOGD.11266","geometry":{"type":"Point","coordinates":[16.365300558015445,48.2268151508829]},"geometry_name":"SHAPE","properties":{"STATION":"Friedensbrücke","BEZIRK":9,"SE_SDO_ROWID":11266,"SE_ANNO_CAD_DATA":null}},{"type":"Feature","id":"CITYBIKEOGD.11267","geometry":{"type":"Point","coordinates":[16.361910261242414,48.22607897216875]},"geometry_name":"SHAPE","properties":{"STATION":"Julius-Tandler-Platz","BEZIRK":9,"SE_SDO_ROWID":11267,"SE_ANNO_CAD_DATA":null}},{"type":"Feature","id":"CITYBIKEOGD.11268","geometry":{"type":"Point","coordinates":[16.3513387427262,48.22642502262636]},"geometry_name":"SHAPE","properties":{"STATION":"Löblichgasse","BEZIRK":9,"SE_SDO_ROWID":11268,"SE_ANNO_CAD_DATA":null}},{"type":"Feature","id":"CITYBIKEOGD.11269","geometry":{"type":"Point","coordinates":[16.354975797960442,48.22514562147288]},"geometry_name":"SHAPE","properties":{"STATION":"Markthalle Alsergrund","BEZIRK":9,"SE_SDO_ROWID":11269,"SE_ANNO_CAD_DATA":null}},{"type":"Feature","id":"CITYBIKEOGD.11270","geometry":{"type":"Point","coordinates":[16.367431454131193,48.222736726527195]},"geometry_name":"SHAPE","properties":{"STATION":"Roßauer Lände U4","BEZIRK":9,"SE_SDO_ROWID":11270,"SE_ANNO_CAD_DATA":null}},{"type":"Feature","id":"CITYBIKEOGD.11271","geometry":{"type":"Point","coordinates":[16.352475524304293,48.219287754026425]},"geometry_name":"SHAPE","properties":{"STATION":"Sensengasse","BEZIRK":9,"SE_SDO_ROWID":11271,"SE_ANNO_CAD_DATA":null}},{"type":"Feature","id":"CITYBIKEOGD.11272","geometry":{"type":"Point","coordinates":[16.361385247869126,48.21458602735518]},"geometry_name":"SHAPE","properties":{"STATION":"Sigmund Freud Park","BEZIRK":9,"SE_SDO_ROWID":11272,"SE_ANNO_CAD_DATA":null}},{"type":"Feature","id":"CITYBIKEOGD.11273","geometry":{"type":"Point","coordinates":[16.358695559144945,48.23528066667918]},"geometry_name":"SHAPE","properties":{"STATION":"Spittelau U4/U6","BEZIRK":9,"SE_SDO_ROWID":11273,"SE_ANNO_CAD_DATA":null}},{"type":"Feature","id":"CITYBIKEOGD.11274","geometry":{"type":"Point","coordinates":[16.375698223043457,48.186293516933475]},"geometry_name":"SHAPE","properties":{"STATION":"Hauptbahnhof","BEZIRK":10,"SE_SDO_ROWID":11274,"SE_ANNO_CAD_DATA":null}},{"type":"Feature","id":"CITYBIKEOGD.11275","geometry":{"type":"Point","coordinates":[16.374056717115323,48.18515975563565]},"geometry_name":"SHAPE","properties":{"STATION":"Hauptbahnhof West","BEZIRK":10,"SE_SDO_ROWID":11275,"SE_ANNO_CAD_DATA":null}},{"type":"Feature","id":"CITYBIKEOGD.11276","geometry":{"type":"Point","coordinates":[16.333922340118463,48.1842621890689]},"geometry_name":"SHAPE","properties":{"STATION":"Längenfeldgasse","BEZIRK":12,"SE_SDO_ROWID":11276,"SE_ANNO_CAD_DATA":null}},{"type":"Feature","id":"CITYBIKEOGD.11277","geometry":{"type":"Point","coordinates":[16.33077135094769,48.18024321000042]},"geometry_name":"SHAPE","properties":{"STATION":"Reschgasse","BEZIRK":12,"SE_SDO_ROWID":11277,"SE_ANNO_CAD_DATA":null}},{"type":"Feature","id":"CITYBIKEOGD.11278","geometry":{"type":"Point","coordinates":[16.331683544704998,48.17517018087157]},"geometry_name":"SHAPE","properties":{"STATION":"Vivenotgasse","BEZIRK":12,"SE_SDO_ROWID":11278,"SE_ANNO_CAD_DATA":null}},{"type":"Feature","id":"CITYBIKEOGD.11279","geometry":{"type":"Point","coordinates":[16.314233440881285,48.18682718871198]},"geometry_name":"SHAPE","properties":{"STATION":"Schönbrunn Haupteingang","BEZIRK":13,"SE_SDO_ROWID":11279,"SE_ANNO_CAD_DATA":null}},{"type":"Feature","id":"CITYBIKEOGD.11280","geometry":{"type":"Point","coordinates":[16.31855107051215,48.19033218545624]},"geometry_name":"SHAPE","properties":{"STATION":"Technisches Museum","BEZIRK":14,"SE_SDO_ROWID":11280,"SE_ANNO_CAD_DATA":null}},{"type":"Feature","id":"CITYBIKEOGD.11281","geometry":{"type":"Point","coordinates":[16.329879342156847,48.202505065651444]},"geometry_name":"SHAPE","properties":{"STATION":"Markgraf-Rüdiger-Straße","BEZIRK":15,"SE_SDO_ROWID":11281,"SE_ANNO_CAD_DATA":null}},{"type":"Feature","id":"CITYBIKEOGD.11282","geometry":{"type":"Point","coordinates":[16.3189695046396,48.1983583735664]},"geometry_name":"SHAPE","properties":{"STATION":"Meiselmarkt","BEZIRK":15,"SE_SDO_ROWID":11282,"SE_ANNO_CAD_DATA":null}},{"type":"Feature","id":"CITYBIKEOGD.11283","geometry":{"type":"Point","coordinates":[16.330205219997342,48.196186109663216]},"geometry_name":"SHAPE","properties":{"STATION":"Schmelzbrücke","BEZIRK":15,"SE_SDO_ROWID":11283,"SE_ANNO_CAD_DATA":null}},{"type":"Feature","id":"CITYBIKEOGD.11284","geometry":{"type":"Point","coordinates":[16.31988941119988,48.18586019000772]},"geometry_name":"SHAPE","properties":{"STATION":"Schönbrunner Brücke","BEZIRK":13,"SE_SDO_ROWID":11284,"SE_ANNO_CAD_DATA":null}},{"type":"Feature","id":"CITYBIKEOGD.11285","geometry":{"type":"Point","coordinates":[16.32711600594408,48.19987760421484]},"geometry_name":"SHAPE","properties":{"STATION":"Schweglerstraße","BEZIRK":15,"SE_SDO_ROWID":11285,"SE_ANNO_CAD_DATA":null}},{"type":"Feature","id":"CITYBIKEOGD.11286","geometry":{"type":"Point","coordinates":[16.32549259406012,48.190811391990984]},"geometry_name":"SHAPE","properties":{"STATION":"Schwendermarkt","BEZIRK":15,"SE_SDO_ROWID":11286,"SE_ANNO_CAD_DATA":null}},{"type":"Feature","id":"CITYBIKEOGD.11287","geometry":{"type":"Point","coordinates":[16.323053145093358,48.19679489159173]},"geometry_name":"SHAPE","properties":{"STATION":"Selzergasse","BEZIRK":15,"SE_SDO_ROWID":11287,"SE_ANNO_CAD_DATA":null}},{"type":"Feature","id":"CITYBIKEOGD.11288","geometry":{"type":"Point","coordinates":[16.333944196182642,48.19307863661804]},"geometry_name":"SHAPE","properties":{"STATION":"Turnergasse","BEZIRK":15,"SE_SDO_ROWID":11288,"SE_ANNO_CAD_DATA":null}},{"type":"Feature","id":"CITYBIKEOGD.11289","geometry":{"type":"Point","coordinates":[16.33855892056237,48.196823487932726]},"geometry_name":"SHAPE","properties":{"STATION":"Westbahnhof Europaplatz","BEZIRK":15,"SE_SDO_ROWID":11289,"SE_ANNO_CAD_DATA":null}},{"type":"Feature","id":"CITYBIKEOGD.11290","geometry":{"type":"Point","coordinates":[16.337711347298168,48.19795699287697]},"geometry_name":"SHAPE","properties":{"STATION":"Westbahnhof Felberstraße","BEZIRK":15,"SE_SDO_ROWID":11290,"SE_ANNO_CAD_DATA":null}},{"type":"Feature","id":"CITYBIKEOGD.11291","geometry":{"type":"Point","coordinates":[16.337209773921458,48.195736445205696]},"geometry_name":"SHAPE","properties":{"STATION":"Westbahnhof Gerstnerstraße","BEZIRK":15,"SE_SDO_ROWID":11291,"SE_ANNO_CAD_DATA":null}},{"type":"Feature","id":"CITYBIKEOGD.11292","geometry":{"type":"Point","coordinates":[16.318423671003167,48.19406919497855]},"geometry_name":"SHAPE","properties":{"STATION":"Wieningerplatz","BEZIRK":15,"SE_SDO_ROWID":11292,"SE_ANNO_CAD_DATA":null}},{"type":"Feature","id":"CITYBIKEOGD.11293","geometry":{"type":"Point","coordinates":[16.330751689466553,48.214012595893635]},"geometry_name":"SHAPE","properties":{"STATION":"Brestelgasse","BEZIRK":16,"SE_SDO_ROWID":11293,"SE_ANNO_CAD_DATA":null}},{"type":"Feature","id":"CITYBIKEOGD.11294","geometry":{"type":"Point","coordinates":[16.330829851564694,48.20583807286012]},"geometry_name":"SHAPE","properties":{"STATION":"Fröbelgasse","BEZIRK":16,"SE_SDO_ROWID":11294,"SE_ANNO_CAD_DATA":null}},{"type":"Feature","id":"CITYBIKEOGD.11295","geometry":{"type":"Point","coordinates":[16.33342655566557,48.20919324374739]},"geometry_name":"SHAPE","properties":{"STATION":"Hofferplatz","BEZIRK":16,"SE_SDO_ROWID":11295,"SE_ANNO_CAD_DATA":null}},{"type":"Feature","id":"CITYBIKEOGD.11296","geometry":{"type":"Point","coordinates":[16.339101362978052,48.21210195102437]},"geometry_name":"SHAPE","properties":{"STATION":"Josefstädter Straße U6","BEZIRK":16,"SE_SDO_ROWID":11296,"SE_ANNO_CAD_DATA":null}},{"type":"Feature","id":"CITYBIKEOGD.11297","geometry":{"type":"Point","coordinates":[16.311762463262074,48.21185291402386]},"geometry_name":"SHAPE","properties":{"STATION":"Ottakring U3","BEZIRK":16,"SE_SDO_ROWID":11297,"SE_ANNO_CAD_DATA":null}},{"type":"Feature","id":"CITYBIKEOGD.11298","geometry":{"type":"Point","coordinates":[16.32798169955151,48.210090539030524]},"geometry_name":"SHAPE","properties":{"STATION":"Richard-Wagner-Platz","BEZIRK":16,"SE_SDO_ROWID":11298,"SE_ANNO_CAD_DATA":null}},{"type":"Feature","id":"CITYBIKEOGD.11299","geometry":{"type":"Point","coordinates":[16.31878981488788,48.210780483631886]},"geometry_name":"SHAPE","properties":{"STATION":"Schuhmeierplatz","BEZIRK":16,"SE_SDO_ROWID":11299,"SE_ANNO_CAD_DATA":null}},{"type":"Feature","id":"CITYBIKEOGD.11300","geometry":{"type":"Point","coordinates":[16.33793230955998,48.20801170422987]},"geometry_name":"SHAPE","properties":{"STATION":"Thaliastraße U6","BEZIRK":16,"SE_SDO_ROWID":11300,"SE_ANNO_CAD_DATA":null}},{"type":"Feature","id":"CITYBIKEOGD.11301","geometry":{"type":"Point","coordinates":[16.335760689943697,48.214068153350084]},"geometry_name":"SHAPE","properties":{"STATION":"Yppenplatz","BEZIRK":16,"SE_SDO_ROWID":11301,"SE_ANNO_CAD_DATA":null}},{"type":"Feature","id":"CITYBIKEOGD.11302","geometry":{"type":"Point","coordinates":[16.341520627990207,48.2166392200885]},"geometry_name":"SHAPE","properties":{"STATION":"Alser Straße U6","BEZIRK":17,"SE_SDO_ROWID":11302,"SE_ANNO_CAD_DATA":null}},{"type":"Feature","id":"CITYBIKEOGD.11303","geometry":{"type":"Point","coordinates":[16.3284886518388,48.2228109095436]},"geometry_name":"SHAPE","properties":{"STATION":"Blumengasse","BEZIRK":17,"SE_SDO_ROWID":11303,"SE_ANNO_CAD_DATA":null}},{"type":"Feature","id":"CITYBIKEOGD.11304","geometry":{"type":"Point","coordinates":[16.334520908141187,48.221254427468416]},"geometry_name":"SHAPE","properties":{"STATION":"Dornerplatz","BEZIRK":17,"SE_SDO_ROWID":11304,"SE_ANNO_CAD_DATA":null}},{"type":"Feature","id":"CITYBIKEOGD.11305","geometry":{"type":"Point","coordinates":[16.33228395218437,48.21803320801108]},"geometry_name":"SHAPE","properties":{"STATION":"Elterleinplatz","BEZIRK":17,"SE_SDO_ROWID":11305,"SE_ANNO_CAD_DATA":null}},{"type":"Feature","id":"CITYBIKEOGD.11306","geometry":{"type":"Point","coordinates":[16.315278837462255,48.22323518323614]},"geometry_name":"SHAPE","properties":{"STATION":"Hernals S45","BEZIRK":17,"SE_SDO_ROWID":11306,"SE_ANNO_CAD_DATA":null}},{"type":"Feature","id":"CITYBIKEOGD.11307","geometry":{"type":"Point","coordinates":[16.337133360472738,48.217118899239146]},"geometry_name":"SHAPE","properties":{"STATION":"Palffygasse","BEZIRK":17,"SE_SDO_ROWID":11307,"SE_ANNO_CAD_DATA":null}},{"type":"Feature","id":"CITYBIKEOGD.11308","geometry":{"type":"Point","coordinates":[16.32653332595916,48.2195379630232]},"geometry_name":"SHAPE","properties":{"STATION":"Rosensteingasse","BEZIRK":17,"SE_SDO_ROWID":11308,"SE_ANNO_CAD_DATA":null}},{"type":"Feature","id":"CITYBIKEOGD.11309","geometry":{"type":"Point","coordinates":[16.335035018108595,48.228560271940516]},"geometry_name":"SHAPE","properties":{"STATION":"Aumannplatz","BEZIRK":18,"SE_SDO_ROWID":11309,"SE_ANNO_CAD_DATA":null}},{"type":"Feature","id":"CITYBIKEOGD.11310","geometry":{"type":"Point","coordinates":[16.329509697076634,48.2310188175218]},"geometry_name":"SHAPE","properties":{"STATION":"Gersthof","BEZIRK":18,"SE_SDO_ROWID":11310,"SE_ANNO_CAD_DATA":null}},{"type":"Feature","id":"CITYBIKEOGD.11311","geometry":{"type":"Point","coordinates":[16.344193372014836,48.22570492281959]},"geometry_name":"SHAPE","properties":{"STATION":"Gertrudplatz","BEZIRK":18,"SE_SDO_ROWID":11311,"SE_ANNO_CAD_DATA":null}},{"type":"Feature","id":"CITYBIKEOGD.11312","geometry":{"type":"Point","coordinates":[16.34370742919867,48.22181286544736]},"geometry_name":"SHAPE","properties":{"STATION":"Michelbeuern","BEZIRK":18,"SE_SDO_ROWID":11312,"SE_ANNO_CAD_DATA":null}},{"type":"Feature","id":"CITYBIKEOGD.11313","geometry":{"type":"Point","coordinates":[16.352971748438584,48.23172265428253]},"geometry_name":"SHAPE","properties":{"STATION":"Nussdorfer Straße U6","BEZIRK":18,"SE_SDO_ROWID":11313,"SE_ANNO_CAD_DATA":null}}],"crs":{"type":"name","properties":{"name":"urn:ogc:def:crs:EPSG::4326"}}}